{
     "eastern_cape": {
        "regionName": "Eastern Cape",
        "regionLocation": {
            "lat": -32.0869448,
            "lng": 24.1658452
        },
        "iconURL": "ec.png",
        "dealerships": [
            {
                "dealerName": "Auto Pedigree East London",
                "location": {
                    "lat": -32.9588026,
                    "lng": 27.9326508
                },
                "totalCars": 14,
                "logoURL": "./assets/dealership_assets/circle/auto_pedigree.png",
                "webURL": "https://www.carmag.co.za/car-dealerships/eastern-cape"
            },
            {
                "dealerName": "Auto Pedigree Eastern Cape",
                "location": {
                    "lat": -32.7656184,
                    "lng": 26.0495569
                },
                "totalCars": 164,
                "logoURL": "./assets/dealership_assets/circle/auto_pedigree.png",
                "webURL": "https://www.carmag.co.za/car-dealerships/eastern-cape"
            },
            {
                "dealerName": "Izuzu Meyers Motors King Williams Town",
                "location": {
                    "lat": -32.9186817,
                    "lng": 27.5163521
                },
                "totalCars": 21,
                "logoURL": "./assets/dealership_assets/circle/izuzu_meyers_car.png",
                "webURL": "https://www.carmag.co.za/car-dealerships/eastern-cape"
            },
            {
                "dealerName": "Meyers Car Bazar",
                "location": {
                    "lat": -33.0138502,
                    "lng": 27.9027218
                },
                "totalCars": 17,
                "logoURL": "./assets/dealership_assets/circle/izuzu_meyers_car.png",
                "webURL": "https://www.carmag.co.za/car-dealerships/eastern-cape"
            },
            {
                "dealerName": "Ronnies Motors",
                "location": {
                    "lat": -33.0138305,
                    "lng": 27.8346931
                },
                "totalCars": 10,
                "logoURL": "./assets/dealership_assets/circle/ronnies_motors.png",
                "webURL": "https://www.carmag.co.za/car-dealerships/eastern-cape"
            }
        ]
    },
    "free_state": {
        "regionName": "Free State",
        "regionLocation": {
            "lat": -28.6743815,
            "lng": 25.9448766
        },
        "iconURL": "fc.png",
        "dealerships": [
            {
                "dealerName": "Auto Pedigree Bloemfontein Oliver Tambo",
                "location": {
                    "lat": -29.1247446,
                    "lng": 26.2173738
                },
                "totalCars": 14,
                "logoURL": "./assets/dealership_assets/circle/auto_pedigree.png",
                "webURL": "https://www.carmag.co.za/car-dealerships/free-state"
            },
            {
                "dealerName": "Auto Pedigree Bloemfontein Zastro",
                "location": {
                    "lat": -29.113348,
                    "lng": 26.2181539
                },
                "totalCars": 15,
                "logoURL": "./assets/dealership_assets/circle/auto_pedigree.png",
                "webURL": "https://www.carmag.co.za/car-dealerships/free-state"
            },
            {
                "dealerName": "Auto Pedigree Qwa-Qwa",
                "location": {
                    "lat": -28.531306,
                    "lng": 28.829376
                },
                "totalCars": 12,
                "logoURL": "./assets/dealership_assets/circle/auto_pedigree.png",
                "webURL": "https://www.carmag.co.za/car-dealerships/free-state"
            }
        ]
    },
    "gauteng": {
        "regionName": "Gauteng",
        "regionLocation": {
            "lat": -26.0144053,
            "lng": 27.5669771
        },
        "iconURL": "gp.png",
        "dealerships": [
            {
                "dealerName": "Autocad Cars",
                "location": {
                    "lat": -26.0957812,
                    "lng": 28.0028578
                },
                "totalCars": 295,
                "logoURL": "./assets/dealership_assets/circle/standard_car_icon.png",
                "webURL": "https://www.carmag.co.za/car-dealerships/gauteng"
            },
            {
                "dealerName": "Auto Investments Centurion",
                "location": {
                    "lat": -26.6793108,
                    "lng": 27.4983813
                },
                "totalCars": 157,
                "logoURL": "./assets/dealership_assets/circle/standard_car_icon.png",
                "webURL": "https://www.carmag.co.za/car-dealerships/gauteng"
            }
        ]
    },
    "kwazulu_natal": {
        "regionName": "KwaZulu-Natal",
        "regionLocation": {
            "lat": -28.9378436,
            "lng": 29.7612388
        },
        "iconURL": "kzn.png",
        "dealerships": [
            {
                "dealerName": "Halfway Ford Waterfall",
                "location": {
                    "lat": -29.7509046,
                    "lng": 30.8116776
                },
                "totalCars": 23,
                "logoURL": "./assets/dealership_assets/circle/standard_car_icon.png",
                "webURL": "https://www.carmag.co.za/car-dealerships/kwazulu-natal"
            }
        ]
    },
    "limpopo": {
        "regionName": "Limpopo",
        "regionLocation": {
            "lat": -23.7675464,
            "lng": 28.0246553
        },
        "iconURL": "lp.png",
        "dealerships": [
            {
                "dealerName": "Auto Pedigree Burgersfort",
                "location": {
                    "lat": -24.684232,
                    "lng": 30.334904
                },
                "totalCars": 10,
                "logoURL": "./assets/dealership_assets/circle/standard_car_icon.png",
                "webURL": "https://www.carmag.co.za/car-dealerships/limpopo"
            },
            {
                "dealerName": "Auto Pedigree Groblersdal",
                "location": {
                    "lat": -25.171794350469916,
                    "lng": 29.391719878212463
                },
                "totalCars": 15,
                "logoURL": "./assets/dealership_assets/circle/auto_pedigree.png",
                "webURL": "https://www.carmag.co.za/car-dealerships/limpopo"
            },
            {
                "dealerName": "Auto Pedigree Polokwane South",
                "location": {
                    "lat": -23.9157526,
                    "lng": 29.4423274
                },
                "totalCars": 15,
                "logoURL": "./assets/dealership_assets/circle/auto_pedigree.png",
                "webURL": "https://www.carmag.co.za/car-dealerships/limpopo"
            }
        ]
    },
    "mpumalanga": {
        "regionName": "Mpumalanga",
        "regionLocation": {
            "lat": -25.7369283,
            "lng": 29.0175029
        },
        "iconURL": "mp.png",
        "dealerships": [
            {
                "dealerName": "Auto Italia",
                "location": {
                    "lat": -25.7720133,
                    "lng": 29.4715153
                },
                "totalCars": 18,
                "logoURL": "./assets/dealership_assets/circle/standard_car_icon.png",
                "webURL": "https://www.carmag.co.za/car-dealerships/mpumalanga"
            },
            {
                "dealerName": "Auto Pedigree Ermelo",
                "location": {
                    "lat": -26.5373093,
                    "lng": 29.9875623
                },
                "totalCars": 11,
                "logoURL": "./assets/dealership_assets/circle/auto_pedigree.png",
                "webURL": "https://www.carmag.co.za/car-dealerships/mpumalanga"
            }
        ]
    },
    "northern_cape": {
        "regionName": "Northern Cape",
        "regionLocation": {
            "lat": -29.67818,
            "lng": 21.265989
        },
        "iconURL": "nc.png",
        "dealerships": [
            {
                "dealerName": "Auto Pedigree Kimberley",
                "location": {
                    "lat": -26.7151309,
                    "lng": 30.0827767
                },
                "totalCars": 12,
                "logoURL": "./assets/dealership_assets/circle/auto_pedigree.png",
                "webURL": "https://www.carmag.co.za/car-dealerships/northern-cape"
            }
        ]
    },
    "north_west": {
        "regionName": "North West",
        "regionLocation": {
            "lat": -26.3681227,
            "lng": 24.342673
        },
        "iconURL": "nw.png",
        "dealerships": [
            {
                "dealerName": "Auto Pedigree Brits",
                "location": {
                    "lat": -25.6300674,
                    "lng": 27.7787409
                },
                "totalCars": 19,
                "logoURL": "./assets/dealership_assets/circle/auto_pedigree.png",
                "webURL": "https://www.carmag.co.za/car-dealerships/northern-cape"
            }
        ]
    },
    "western_cape": {
        "regionName": "Western Cape",
        "regionLocation": {
            "lat": -32.8847716,
            "lng": 19.7016556
        },
        "iconURL": "wc.png",
        "dealerships": [
            {
                "dealerName": "Alterior Auto",
                "location": {
                    "lat": -33.9067444,
                    "lng": 18.580001
                },
                "totalCars": 11,
                "logoURL": "./assets/dealership_assets/circle/standard_car_icon.png",
                "webURL": "https://www.carmag.co.za/car-dealerships/western-cape"
            },
            {
                "dealerName": "Auto Pedigree Bellville",
                "location": {
                    "lat": -33.9023769,
                    "lng": 18.6072502
                },
                "totalCars": 10,
                "logoURL": "./assets/dealership_assets/circle/auto_pedigree.png",
                "webURL": "https://www.carmag.co.za/car-dealerships/western-cape"
            }
        ]
    }
}